# Time (s),Altitude (m),Vertical velocity (m/s),Vertical acceleration (m/s²),Total velocity (m/s),Total acceleration (m/s²),Position East of launch (m),Position North of launch (m),Lateral distance (m),Lateral direction (°),Lateral velocity (m/s),Lateral acceleration (m/s²),Latitude (°),Longitude (°),Gravitational acceleration (m/s²),Angle of attack (°),Roll rate (°/s),Pitch rate (°/s),Yaw rate (°/s),Mass (g),Propellant mass (g),Longitudinal moment of inertia (kg·m²),Rotational moment of inertia (kg·m²),CP location (cm),CG location (cm),Stability margin calibers (​),Mach number (​),Reynolds number (​),Thrust (N),Drag force (N),Drag coefficient (​),Axial drag coefficient (​),Friction drag coefficient (​),Pressure drag coefficient (​),Base drag coefficient (​),Normal force coefficient (​),Pitch moment coefficient (​),Yaw moment coefficient (​),Side force coefficient (​),Roll moment coefficient (​),Roll forcing coefficient (​),Roll damping coefficient (​),Pitch damping coefficient (​),Coriolis acceleration (m/s²),Reference length (cm),Reference area (cm²),Vertical orientation (zenith) (°),Lateral orientation (azimuth) (°),Wind velocity (m/s),Air temperature (°C),Air pressure (mbar),Speed of sound (m/s),Simulation time step (s),Computation time (s)
0,0,0,2.7042,0,2.7079,0,0,0,0,0,0.14172,32.9,-106,9.7954,87,0,0,0,1254,117.96,0.18691,0.0087409,NaN,67.181,NaN,0.005918,130844,15.662,2.5989e-6,0.6175,2.1599e-4,0.46796,0.02953,0.12,NaN,NaN,NaN,NaN,NaN,NaN,NaN,NaN,0,7.874,48.695,87,0,NaN,14.675,1007.4,340.19,2e-3,0.0013725
2e-3,5.4083e-6,0.0054083,27.65,0.0054158,27.688,2.8344e-7,0,2.8344e-7,0,2.8344e-4,1.4491,32.9,-106,9.7954,86.846,0,0,0,1254,117.96,0.18691,0.0087409,NaN,67.181,NaN,0.0059135,130745,46.986,3.0111e-6,0.61759,2.5063e-4,0.46805,0.02953,0.12,NaN,NaN,NaN,NaN,NaN,NaN,NaN,NaN,6.6355e-7,7.874,48.695,87,0,NaN,14.675,1007.4,340.19,2e-3,0.0017246
4e-3,7.1527e-5,0.060711,52.599,0.060795,52.671,3.7486e-6,0,3.7486e-6,0,0.0031817,2.7566,32.9,-106,9.7954,85.272,0,0,0,1253.9,117.89,0.1869,0.0087409,NaN,67.18,NaN,0.0059193,130874,78.309,9.989e-6,0.61747,8.2979e-4,0.46794,0.02953,0.12,NaN,NaN,NaN,NaN,NaN,NaN,NaN,NaN,7.4487e-6,7.874,48.695,87,0,NaN,14.675,1007.4,340.19,2e-3,0.0020113
6e-3,2.9815e-4,0.16591,77.551,0.16614,77.657,1.5625e-5,0,1.5625e-5,0,0.0086952,4.0643,32.9,-106,9.7954,82.296,0,0,0,1253.8,117.82,0.1869,0.0087409,NaN,67.179,NaN,0.0059475,131497,109.63,4.2191e-5,0.61692,0.0034717,0.46739,0.02953,0.12,NaN,NaN,NaN,NaN,NaN,NaN,NaN,NaN,2.0356e-5,7.874,48.695,87,0,NaN,14.675,1007.4,340.19,2e-3,0.0022433
8e-3,7.8509e-4,0.32102,95.196,0.32147,95.327,4.1145e-5,0,4.1145e-5,0,0.016824,4.989,32.9,-106,9.7954,77.982,0,0,0,1253.8,117.75,0.1869,0.0087408,NaN,67.178,NaN,0.0060205,133109,131.78,1.5588e-4,0.61551,0.012517,0.46597,0.02953,0.12,NaN,NaN,NaN,NaN,NaN,NaN,NaN,NaN,3.9387e-5,7.874,48.695,87,0,NaN,14.675,1007.4,340.19,2e-3,0.0024701
0.01,0.0016175,0.51143,105.54,0.51214,105.68,8.4772e-5,0,8.4772e-5,0,0.026803,5.5311,32.9,-106,9.7954,72.866,0,0,0,1253.6,117.62,0.1869,0.0087408,NaN,67.177,NaN,0.0061564,136115,144.75,4.422e-4,0.61294,0.03396,0.46341,0.029531,0.12,NaN,NaN,NaN,NaN,NaN,NaN,NaN,NaN,6.2748e-5,7.874,48.695,87,0,NaN,14.675,1007.4,340.19,2e-3,0.0026896
0.012,0.0028515,0.72254,115.89,0.72353,116.05,1.4944e-4,0,1.4944e-4,0,0.037867,6.0735,32.9,-106,9.7954,67.498,0,0,0,1253.4,117.43,0.18689,0.0087408,NaN,67.174,NaN,0.0063622,140664,157.72,9.9193e-4,0.6092,0.071329,0.45966,0.029531,0.12001,NaN,NaN,NaN,NaN,NaN,NaN,NaN,NaN,8.8649e-5,7.874,48.695,87,0,NaN,14.675,1007.4,340.19,2e-3,0.0029101
0.014,0.0045284,0.95435,126.24,0.95566,126.42,2.3732e-4,0,2.3732e-4,0,0.050015,6.6161,32.9,-106,9.7954,62.042,0,0,0,1253.2,117.24,0.18688,0.0087408,NaN,67.172,NaN,0.0066484,146992,170.69,0.0019106,0.60426,0.12581,0.45472,0.029531,0.12001,NaN,NaN,NaN,NaN,NaN,NaN,NaN,NaN,1.1709e-4,7.874,48.695,87,0,NaN,14.675,1007.4,340.19,2e-3,0.0031269
0.016,0.0066896,1.2069,136.6,1.2085,136.79,3.5059e-4,0,3.5059e-4,0,0.063249,7.1589,32.9,-106,9.7954,56.659,0,0,0,1253,117.05,0.18688,0.0087408,NaN,67.17,NaN,0.007023,155274,183.66,0.0033017,0.59821,0.19485,0.44867,0.029532,0.12001,NaN,NaN,NaN,NaN,NaN,NaN,NaN,NaN,1.4807e-4,7.874,48.695,87,0,NaN,14.675,1007.4,340.19,2e-3,0.0033496
0.018,0.0093766,1.4801,146.96,1.4821,147.16,4.9141e-4,0,4.9141e-4,0,0.077569,7.7018,32.9,-106,9.7954,51.492,0,0,0,1252.9,116.86,0.18687,0.0087408,NaN,67.167,NaN,0.0074908,165618,196.63,0.0052581,0.59126,0.27275,0.44172,0.029533,0.12001,NaN,NaN,NaN,NaN,NaN,NaN,NaN,NaN,1.8159e-4,7.874,48.695,87,0,NaN,14.675,1007.4,340.19,2e-3,0.0041624
0.02,0.012631,1.7741,155.72,1.7765,155.93,6.6195e-4,0,6.6195e-4,0,0.092975,8.1607,32.9,-106,9.7954,46.647,0,0,0,1252.7,116.67,0.18687,0.0087407,NaN,67.165,NaN,0.008054,178069,207.59,0.0078564,0.58363,0.35253,0.43408,0.029534,0.12001,NaN,NaN,NaN,NaN,NaN,NaN,NaN,NaN,2.1766e-4,7.874,48.695,87,0,NaN,14.675,1007.4,340.19,2e-3,0.004885
0.022,0.01649,2.0855,154.84,2.0884,155.05,8.6422e-4,0,8.6422e-4,0,0.1093,8.1148,32.9,-106,9.7954,42.232,0,0,0,1252.5,116.47,0.18686,0.0087407,NaN,67.162,NaN,0.0087051,192466,206.46,0.011119,0.57566,0.4271,0.42612,0.029536,0.12001,NaN,NaN,NaN,NaN,NaN,NaN,NaN,NaN,2.5587e-4,7.874,48.695,87,0,NaN,14.675,1007.4,340.19,2e-3,0.0053986
0.024,0.020971,2.3953,152.36,2.3985,152.57,0.001099,0,0.001099,0,0.12553,7.9849,32.9,-106,9.7954,38.47,0,0,0,1252.3,116.26,0.18686,0.0087407,NaN,67.16,NaN,0.0093966,207754,203.32,0.014831,0.56805,0.48892,0.4185,0.029538,0.12001,NaN,NaN,NaN,NaN,NaN,NaN,NaN,NaN,2.9387e-4,7.874,48.695,87,0,NaN,14.675,1007.4,340.19,2e-3,0.0065492
0.026,0.026066,2.7,149.88,2.7037,150.09,0.0013661,0,0.0013661,0,0.1415,7.8549,32.9,-106,9.7954,35.283,0,0,0,1252.1,116.05,0.18685,0.0087407,NaN,67.157,NaN,0.010111,223550,200.18,0.01889,0.56094,0.53781,0.41138,0.02954,0.12001,NaN,NaN,NaN,NaN,NaN,NaN,NaN,NaN,3.3127e-4,7.874,48.695,87,0,NaN,14.675,1007.4,340.19,2e-3,0.0081423
0.028,0.031766,2.9998,147.4,3.0039,147.6,0.0016648,0,0.0016648,0,0.15721,7.7248,32.9,-106,9.7954,32.566,0,0,0,1251.8,115.84,0.18684,0.0087406,NaN,67.155,NaN,0.01084,239673,197.04,0.023233,0.55435,0.57548,0.40479,0.029542,0.12002,NaN,NaN,NaN,NaN,NaN,NaN,NaN,NaN,3.6805e-4,7.874,48.695,87,0,NaN,14.675,1007.4,340.19,2e-3,0.009085
0.03,0.038061,3.2947,144.92,3.2992,145.11,0.0019947,0,0.0019947,0,0.17267,7.5947,32.9,-106,9.7954,30.232,0,0,0,1251.6,115.63,0.18684,0.0087406,NaN,67.152,NaN,0.011578,255987,193.9,0.027812,0.54826,0.60388,0.3987,0.029544,0.12002,NaN,NaN,NaN,NaN,NaN,NaN,NaN,NaN,4.0422e-4,7.874,48.695,87,0,NaN,14.675,1007.4,340.19,2e-3,0.0096287
0.032,0.04494,3.5845,142.43,3.5894,142.63,0.0023552,0,0.0023552,0,0.18786,7.4645,32.9,-106,9.7954,28.213,0,0,0,1251.4,115.42,0.18683,0.0087406,NaN,67.149,NaN,0.01232,272390,190.76,0.032584,0.54264,0.62485,0.39308,0.029546,0.12002,NaN,NaN,NaN,NaN,NaN,NaN,NaN,NaN,4.3979e-4,7.874,48.695,87,0,NaN,14.675,1007.4,340.19,2e-3,0.010108
0.034,0.052394,3.8694,139.95,3.8747,140.14,0.0027458,0,0.0027458,0,0.20279,7.3343,32.9,-106,9.7954,26.453,0,0,0,1251.2,115.21,0.18683,0.0087406,NaN,67.147,NaN,0.013062,288803,187.62,0.037514,0.53746,0.63995,0.38789,0.029549,0.12002,NaN,NaN,NaN,NaN,NaN,NaN,NaN,NaN,4.7474e-4,7.874,48.695,87,0,NaN,14.675,1007.4,340.19,2e-3,0.010826
0.036,0.060413,4.1494,137.46,4.1551,137.65,0.0031661,0,0.0031661,0,0.21746,7.2041,32.9,-106,9.7954,24.91,0,0,0,1251,115,0.18682,0.0087406,NaN,67.144,NaN,0.013803,305166,184.48,0.042573,0.53267,0.65045,0.3831,0.029552,0.12002,NaN,NaN,NaN,NaN,NaN,NaN,NaN,NaN,5.0909e-4,7.874,48.695,87,0,NaN,14.675,1007.4,340.19,2e-3,0.011274
0.038,0.068986,4.4243,134.98,4.4304,135.16,0.0036154,0,0.0036154,0,0.23187,7.0737,32.9,-106,9.7954,23.548,0,0,0,1250.8,114.79,0.18681,0.0087405,NaN,67.141,NaN,0.014538,321431,181.34,0.047737,0.52824,0.6574,0.37866,0.029555,0.12003,NaN,NaN,NaN,NaN,NaN,NaN,NaN,NaN,5.4282e-4,7.874,48.695,87,0,NaN,14.675,1007.4,340.19,2e-3,0.011606
0.04,0.078105,4.6943,132.49,4.7007,132.67,0.0040933,0,0.0040933,0,0.24602,6.9434,32.9,-106,9.7954,22.338,0,0,0,1250.6,114.58,0.18681,0.0087405,NaN,67.139,NaN,0.015268,337561,178.2,0.052984,0.52414,0.66159,0.37455,0.029558,0.12003,NaN,NaN,NaN,NaN,NaN,NaN,NaN,NaN,5.7595e-4,7.874,48.695,87,0,NaN,14.674,1007.4,340.19,2e-3,0.011956
0.042,0.087759,4.9593,130,4.9661,130.18,0.0045992,0,0.0045992,0,0.25991,6.813,32.9,-106,9.7954,21.258,0,0,0,1250.4,114.36,0.1868,0.0087405,NaN,67.136,NaN,0.01599,353525,175.06,0.058296,0.52033,0.66366,0.37073,0.029561,0.12003,NaN,NaN,NaN,NaN,NaN,NaN,NaN,NaN,6.0846e-4,7.874,48.695,87,0,NaN,14.674,1007.4,340.19,2e-3,0.012419
0.044,0.097937,5.2194,127.51,5.2265,127.69,0.0051327,0,0.0051327,0,0.27353,6.6825,32.9,-106,9.7954,20.29,0,0,0,1250.2,114.15,0.18679,0.0087405,NaN,67.133,NaN,0.016703,369300,171.92,0.063657,0.51678,0.66411,0.36718,0.029564,0.12004,NaN,NaN,NaN,NaN,NaN,NaN,NaN,NaN,6.4036e-4,7.874,48.695,87,0,NaN,14.674,1007.4,340.19,2e-3,0.013218
0.046,0.10863,5.4744,125.02,5.4819,125.19,0.0056931,0,0.0056931,0,0.2869,6.552,32.9,-106,9.7954,19.416,0,0,0,1249.9,113.94,0.18679,0.0087404,NaN,67.131,NaN,0.017408,384867,168.78,0.069054,0.51347,0.66331,0.36386,0.029568,0.12004,NaN,NaN,NaN,NaN,NaN,NaN,NaN,NaN,6.7166e-4,7.874,48.695,87,0,NaN,14.674,1007.4,340.19,2e-3,0.013658
0.048,0.11983,5.7245,122.53,5.7323,122.7,0.00628,0,0.00628,0,0.30001,6.4215,32.9,-106,9.7954,18.626,0,0,0,1249.7,113.73,0.18678,0.0087404,NaN,67.128,NaN,0.018101,400209,165.64,0.074474,0.51038,0.66157,0.36076,0.029571,0.12004,NaN,NaN,NaN,NaN,NaN,NaN,NaN,NaN,7.0234e-4,7.874,48.695,87,0,NaN,14.674,1007.4,340.19,2e-3,0.014083
0.05,0.13152,5.9696,120.04,5.9778,120.2,0.0068929,0,0.0068929,0,0.31285,6.2909,32.9,-106,9.7954,17.908,0,0,0,1249.5,113.52,0.18678,0.0087404,NaN,67.125,NaN,0.018785,415312,162.5,0.079904,0.50749,0.65913,0.35786,0.029574,0.12005,NaN,NaN,NaN,NaN,NaN,NaN,NaN,NaN,7.3241e-4,7.874,48.695,87,0,NaN,14.674,1007.4,340.19,2e-3,0.014499
0.052,0.1437,6.2097,119.11,6.2182,119.28,0.0075312,0,0.0075312,0,0.32544,6.2425,32.9,-106,9.7954,17.221,0,0,0,1249.3,113.31,0.18677,0.0087404,NaN,67.123,NaN,0.019452,430078,161.32,0.085305,0.50479,0.65619,0.35516,0.029578,0.12005,NaN,NaN,NaN,NaN,NaN,NaN,NaN,NaN,7.6187e-4,7.874,48.695,87,0,NaN,14.674,1007.4,340.19,2e-3,0.015155
0.054,0.15636,6.4479,119.76,6.4568,119.92,0.0081945,0,0.0081945,0,0.33792,6.2762,32.9,-106,9.7954,16.585,0,0,0,1249.1,113.1,0.18676,0.0087404,NaN,67.12,NaN,0.020118,444787,162.1,0.090744,0.50222,0.65263,0.35259,0.029582,0.12005,NaN,NaN,NaN,NaN,NaN,NaN,NaN,NaN,7.911e-4,7.874,48.695,87,0,NaN,14.674,1007.4,340.19,2e-3,0.015641
0.056,0.1695,6.6875,120.4,6.6967,120.56,0.0088829,0,0.0088829,0,0.35048,6.3098,32.9,-106,9.7954,15.986,0,0,0,1248.9,112.91,0.18676,0.0087403,NaN,67.118,NaN,0.020789,459626,162.89,0.096234,0.49975,0.64814,0.35011,0.029586,0.12006,NaN,NaN,NaN,NaN,NaN,NaN,NaN,NaN,8.2049e-4,7.874,48.695,87,0,NaN,14.674,1007.4,340.19,2e-3,0.016388
0.058,0.18311,6.9283,121.04,6.9378,121.21,0.0095965,0,0.0095965,0,0.3631,6.3435,32.9,-106,9.7954,15.422,0,0,0,1248.7,112.71,0.18675,0.0087403,NaN,67.115,NaN,0.021466,474594,163.67,0.10178,0.49736,0.64295,0.34771,0.02959,0.12006,NaN,NaN,NaN,NaN,NaN,NaN,NaN,NaN,8.5004e-4,7.874,48.695,87,0,NaN,14.674,1007.4,340.19,2e-3,0.017123
0.06,0.19721,7.1704,121.68,7.1803,121.85,0.010335,0,0.010335,0,0.37579,6.3772,32.9,-106,9.7954,14.891,0,0,0,1248.5,112.51,0.18675,0.0087403,NaN,67.112,NaN,0.022149,489686,164.45,0.1074,0.49504,0.63726,0.34539,0.029594,0.12006,NaN,NaN,NaN,NaN,NaN,NaN,NaN,NaN,8.7974e-4,7.874,48.695,87,0,NaN,14.674,1007.4,340.19,2e-3,0.017547
0.062,0.21179,7.4138,122.33,7.424,122.5,0.0111,0,0.0111,0,0.38854,6.4109,32.9,-106,9.7954,14.388,0,0,0,1248.3,112.31,0.18674,0.0087403,NaN,67.11,NaN,0.022837,504898,165.24,0.1131,0.49281,0.63125,0.34314,0.029598,0.12007,NaN,NaN,NaN,NaN,NaN,NaN,NaN,NaN,9.096e-4,7.874,48.695,87,0,NaN,14.674,1007.4,340.19,2e-3,0.017905
0.064,0.22687,7.6585,122.97,7.669,123.14,0.01189,0,0.01189,0,0.40137,6.4446,32.9,-106,9.7954,13.913,0,0,0,1248.1,112.11,0.18673,0.0087403,NaN,67.107,NaN,0.02353,520228,166.02,0.11889,0.49064,0.62503,0.34096,0.029602,0.12007,NaN,NaN,NaN,NaN,NaN,NaN,NaN,NaN,9.3963e-4,7.874,48.695,87,0,NaN,14.674,1007.4,340.19,2e-3,0.018331
0.066,0.24243,7.9045,123.61,7.9153,123.78,0.012705,0,0.012705,0,0.41426,6.4783,32.9,-106,9.7954,13.463,0,0,0,1247.9,111.92,0.18673,0.0087402,NaN,67.105,NaN,0.024229,535673,166.8,0.12478,0.48854,0.61871,0.33886,0.029607,0.12008,NaN,NaN,NaN,NaN,NaN,NaN,NaN,NaN,9.698e-4,7.874,48.695,87,0,NaN,14.673,1007.4,340.19,2e-3,0.018668
0.068,0.25849,8.1517,124.26,8.1629,124.43,0.013547,0,0.013547,0,0.42721,6.512,32.9,-106,9.7954,13.036,0,0,0,1247.7,111.72,0.18672,0.0087402,NaN,67.102,NaN,0.024932,551230,167.59,0.13077,0.48651,0.61236,0.33681,0.029612,0.12008,NaN,NaN,NaN,NaN,NaN,NaN,NaN,NaN,0.0010001,7.874,48.695,87,0,NaN,14.673,1007.4,340.19,2e-3,0.019187
0.07,0.27504,8.4003,124.9,8.4118,125.07,0.014414,0,0.014414,0,0.44024,6.5458,32.9,-106,9.7954,12.631,0,0,0,1247.5,111.52,0.18672,0.0087402,NaN,67.1,NaN,0.025641,566899,168.37,0.13689,0.48453,0.60603,0.33483,0.029617,0.12009,NaN,NaN,NaN,NaN,NaN,NaN,NaN,NaN,0.0010306,7.874,48.695,87,0,NaN,14.673,1007.4,340.19,2e-3,0.019654
0.072,0.29209,8.6501,125.54,8.662,125.72,0.015308,0,0.015308,0,0.45333,6.5795,32.9,-106,9.7954,12.246,0,0,0,1247.3,111.32,0.18671,0.0087402,NaN,67.097,NaN,0.026355,582675,169.15,0.14312,0.48262,0.59977,0.33291,0.029622,0.12009,NaN,NaN,NaN,NaN,NaN,NaN,NaN,NaN,0.0010613,7.874,48.695,87,0,NaN,14.673,1007.4,340.19,2e-3,0.020462
0.074,0.30964,8.9012,126.19,8.9134,126.36,0.016228,0,0.016228,0,0.46649,6.6132,32.9,-106,9.7954,11.88,0,0,0,1247.1,111.12,0.18671,0.0087402,NaN,67.095,NaN,0.027073,598559,169.94,0.14948,0.48076,0.59362,0.33104,0.029627,0.1201,NaN,NaN,NaN,NaN,NaN,NaN,NaN,NaN,0.0010921,7.874,48.695,87,0,NaN,14.673,1007.3,340.19,2e-3,0.021025
0.076,0.32769,9.1536,126.83,9.1662,127.01,0.017174,0,0.017174,0,0.47972,6.647,32.9,-106,9.7954,11.531,0,0,0,1246.9,110.93,0.1867,0.0087401,NaN,67.092,NaN,0.027796,614548,170.72,0.15597,0.47895,0.58759,0.32922,0.029633,0.1201,NaN,NaN,NaN,NaN,NaN,NaN,NaN,NaN,0.0011231,7.874,48.695,87,0,NaN,14.673,1007.3,340.19,2e-3,0.021603
0.078,0.34626,9.4073,127.48,9.4202,127.65,0.018147,0,0.018147,0,0.49302,6.6807,32.9,-106,9.7954,11.198,0,0,0,1246.7,110.73,0.18669,0.0087401,NaN,67.09,NaN,0.028524,630641,171.5,0.1626,0.4772,0.58171,0.32745,0.029639,0.12011,NaN,NaN,NaN,NaN,NaN,NaN,NaN,NaN,0.0011542,7.874,48.695,87,0,NaN,14.673,1007.3,340.19,2e-3,0.022177
0.08,0.36533,9.6623,128.12,9.6756,128.3,0.019146,0,0.019146,0,0.50638,6.7144,32.9,-106,9.7954,10.88,0,0,0,1246.5,110.53,0.18669,0.0087401,NaN,67.087,NaN,0.029257,646836,172.29,0.16938,0.47549,0.57599,0.32573,0.029645,0.12011,NaN,NaN,NaN,NaN,NaN,NaN,NaN,NaN,0.0011855,7.874,48.695,87,0,NaN,14.673,1007.3,340.19,2e-3,0.022891
0.082,0.38491,9.9186,128.76,9.9322,128.94,0.020172,0,0.020172,0,0.51981,6.7482,32.9,-106,9.7954,10.577,0,0,0,1246.3,110.33,0.18668,0.0087401,NaN,67.085,NaN,0.029994,663132,173.07,0.1763,0.47382,0.57043,0.32405,0.029651,0.12012,NaN,NaN,NaN,NaN,NaN,NaN,NaN,NaN,0.0012169,7.874,48.695,87,0,NaN,14.672,1007.3,340.19,2e-3,0.023396
0.084,0.405,10.176,129.41,10.19,129.58,0.021225,0,0.021225,0,0.53331,6.782,32.9,-106,9.7954,10.287,0,0,0,1246.1,110.13,0.18668,0.00874,NaN,67.082,NaN,0.030736,679529,173.85,0.18338,0.4722,0.56504,0.32242,0.029657,0.12012,NaN,NaN,NaN,NaN,NaN,NaN,NaN,NaN,0.0012485,7.874,48.695,87,0,NaN,14.672,1007.3,340.19,2e-3,0.023847
0.086,0.42561,10.435,130.05,10.449,130.23,0.022305,0,0.022305,0,0.54687,6.8157,32.9,-106,9.7954,10.009,0,0,0,1245.9,109.94,0.18667,0.00874,NaN,67.08,NaN,0.031482,696024,174.64,0.19062,0.47062,0.55982,0.32083,0.029663,0.12013,NaN,NaN,NaN,NaN,NaN,NaN,NaN,NaN,0.0012803,7.874,48.695,87,0,NaN,14.672,1007.3,340.19,2e-3,0.0242
0.088,0.44674,10.695,130.7,10.71,130.88,0.023413,0,0.023413,0,0.56051,6.8495,32.9,-106,9.7954,9.7435,0,0,0,1245.7,109.74,0.18666,0.00874,NaN,67.077,NaN,0.032233,712618,175.42,0.19801,0.46909,0.55478,0.31928,0.02967,0.12014,NaN,NaN,NaN,NaN,NaN,NaN,NaN,NaN,0.0013122,7.874,48.695,87,0,NaN,14.672,1007.3,340.19,2e-3,0.024672
0.09,0.46839,10.957,131.34,10.972,131.52,0.024547,0,0.024547,0,0.57421,6.8832,32.9,-106,9.7954,9.4886,0,0,0,1245.5,109.54,0.18666,0.00874,NaN,67.075,NaN,0.032988,729309,176.2,0.20557,0.46759,0.5499,0.31777,0.029677,0.12014,NaN,NaN,NaN,NaN,NaN,NaN,NaN,NaN,0.0013443,7.874,48.695,87,0,NaN,14.672,1007.3,340.19,2e-3,0.025178
0.092,0.49057,11.219,131.98,11.235,132.17,0.02571,0,0.02571,0,0.58798,6.917,32.9,-106,9.7954,9.2441,0,0,0,1245.3,109.34,0.18665,0.00874,NaN,67.072,NaN,0.033747,746096,176.99,0.21331,0.46612,0.5452,0.31629,0.029684,0.12015,NaN,NaN,NaN,NaN,NaN,NaN,NaN,NaN,0.0013765,7.874,48.695,87,0,NaN,14.672,1007.3,340.19,2e-3,0.027101
0.094,0.51327,11.483,132.63,11.499,132.81,0.026899,0,0.026899,0,0.60181,6.9508,32.9,-106,9.7954,9.0094,0,0,0,1245.1,109.14,0.18665,0.0087399,NaN,67.07,NaN,0.034511,762979,177.77,0.22121,0.46469,0.54066,0.31485,0.029691,0.12015,NaN,NaN,NaN,NaN,NaN,NaN,NaN,NaN,0.0014089,7.874,48.695,87,0,NaN,14.672,1007.3,340.19,2e-3,0.027757
0.096,0.5365,11.749,133.27,11.765,133.46,0.028117,0,0.028117,0,0.61571,6.9845,32.9,-106,9.7954,8.7839,0,0,0,1244.9,108.95,0.18664,0.0087399,NaN,67.067,NaN,0.035279,779958,178.55,0.22982,0.46437,0.53752,0.31451,0.029699,0.12016,NaN,NaN,NaN,NaN,NaN,NaN,NaN,NaN,0.0014414,7.874,48.695,87,0,NaN,14.672,1007.3,340.19,2e-3,0.028449
0.098,0.56027,12.015,133.92,12.032,134.1,0.029362,0,0.029362,0,0.62969,7.0183,32.9,-106,9.7954,8.5671,0,0,0,1244.7,108.75,0.18663,0.0087399,NaN,67.065,NaN,0.036051,797030,179.34,0.23881,0.46439,0.53487,0.31451,0.029706,0.12017,NaN,NaN,NaN,NaN,NaN,NaN,NaN,NaN,0.0014741,7.874,48.695,87,0,NaN,14.671,1007.3,340.19,2e-3,0.029049
0.1,0.58457,12.283,134.56,12.3,134.75,0.030636,0,0.030636,0,0.64372,7.0521,32.9,-106,9.7954,8.3586,0,0,0,1244.6,108.55,0.18663,0.0087399,NaN,67.062,NaN,0.036828,814197,180.12,0.24802,0.4644,0.53232,0.31451,0.029714,0.12018,NaN,NaN,NaN,NaN,NaN,NaN,NaN,NaN,0.001507,7.874,48.695,87,0,NaN,14.671,1007.3,340.19,2e-3,0.029633
0.102,0.6094,12.552,135.21,12.569,135.39,0.031937,0,0.031937,0,0.65783,7.0858,32.9,-106,9.7954,8.192,0,0,0,1244.4,108.35,0.18662,0.0087399,NaN,67.06,NaN,0.037613,831554,180.9,0.25773,0.46441,0.53029,0.31451,0.029722,0.12018,NaN,NaN,NaN,NaN,NaN,NaN,NaN,NaN,0.00154,7.874,48.695,87,0,NaN,14.671,1007.3,340.19,2e-3,0.030134
0.104,0.63478,12.823,135.85,12.84,136.04,0.033267,0,0.033267,0,0.672,7.1195,32.9,-106,9.7954,8.0314,0,0,0,1244.2,108.15,0.18662,0.0087398,NaN,67.057,NaN,0.038402,849001,181.69,0.26767,0.46443,0.52834,0.31451,0.029731,0.12019,NaN,NaN,NaN,NaN,NaN,NaN,NaN,NaN,0.0015732,7.874,48.695,87,0,NaN,14.671,1007.3,340.19,2e-3,0.034581
0.106,0.66069,13.094,136.49,13.112,136.68,0.034625,0,0.034625,0,0.68624,7.1533,32.9,-106,9.7954,7.8766,0,0,0,1244,107.96,0.18661,0.0087398,NaN,67.055,NaN,0.039195,866538,182.47,0.27785,0.46444,0.52646,0.3145,0.029739,0.1202,NaN,NaN,NaN,NaN,NaN,NaN,NaN,NaN,0.0016065,7.874,48.695,87,0,NaN,14.671,1007.3,340.19,2e-3,0.035108
0.108,0.68715,13.367,137.14,13.386,137.32,0.036012,0,0.036012,0,0.70055,7.187,32.9,-106,9.7954,7.7272,0,0,0,1243.8,107.76,0.18661,0.0087398,NaN,67.052,NaN,0.039993,884163,183.25,0.28827,0.46446,0.52465,0.3145,0.029748,0.12021,NaN,NaN,NaN,NaN,NaN,NaN,NaN,NaN,0.00164,7.874,48.695,87,0,NaN,14.671,1007.3,340.19,2e-3,0.036176
0.11,0.71416,13.642,137.78,13.66,137.97,0.037428,0,0.037428,0,0.71493,7.2208,32.9,-106,9.7954,7.5829,0,0,0,1243.6,107.56,0.1866,0.0087398,NaN,67.05,NaN,0.040794,901877,184.04,0.29894,0.46447,0.52291,0.3145,0.029757,0.12022,NaN,NaN,NaN,NaN,NaN,NaN,NaN,NaN,0.0016737,7.874,48.695,87,0,NaN,14.67,1007.3,340.19,2e-3,0.036748
0.112,0.74172,13.917,138.42,13.936,138.61,0.038872,0,0.038872,0,0.72937,7.2545,32.9,-106,9.7954,7.4435,0,0,0,1243.4,107.36,0.18659,0.0087398,NaN,67.047,NaN,0.041599,919680,184.82,0.30987,0.46449,0.52124,0.3145,0.029767,0.12022,NaN,NaN,NaN,NaN,NaN,NaN,NaN,NaN,0.0017075,7.874,48.695,87,0,NaN,14.67,1007.3,340.19,2e-3,0.037208
0.114,0.76983,14.194,139.07,14.214,139.26,0.040345,0,0.040345,0,0.74388,7.2883,32.9,-106,9.7954,7.3088,0,0,0,1243.2,107.16,0.18659,0.0087397,NaN,67.045,NaN,0.042409,937571,185.6,0.32105,0.46451,0.51963,0.3145,0.029776,0.12023,NaN,NaN,NaN,NaN,NaN,NaN,NaN,NaN,0.0017415,7.874,48.695,87,0,NaN,14.67,1007.3,340.19,2e-3,0.037605
0.116,0.7985,14.472,139.71,14.492,139.9,0.041848,0,0.041848,0,0.75846,7.322,32.9,-106,9.7954,7.1784,0,0,0,1243,106.97,0.18658,0.0087397,NaN,67.042,NaN,0.043222,955550,186.39,0.33249,0.46452,0.51808,0.31449,0.029786,0.12024,NaN,NaN,NaN,NaN,NaN,NaN,NaN,NaN,0.0017756,7.874,48.695,87,0,NaN,14.67,1007.3,340.19,2e-3,0.038259
0.118,0.82772,14.752,140.06,14.772,140.25,0.043379,0,0.043379,0,0.7731,7.3402,32.9,-106,9.7954,7.0523,0,0,0,1242.8,106.77,0.18658,0.0087397,NaN,67.04,NaN,0.044039,973617,186.8,0.34418,0.46454,0.51659,0.31449,0.029796,0.12025,NaN,NaN,NaN,NaN,NaN,NaN,NaN,NaN,0.0018099,7.874,48.695,87,0,NaN,14.67,1007.3,340.19,2e-3,0.03869
0.12,0.85751,15.032,140.11,15.052,140.3,0.04494,0,0.04494,0,0.78779,7.3429,32.9,-106,9.7954,6.9305,0,0,0,1242.6,106.56,0.18657,0.0087397,NaN,67.037,NaN,0.044859,991733,186.85,0.35612,0.46456,0.51516,0.31449,0.029806,0.12026,NaN,NaN,NaN,NaN,NaN,NaN,NaN,NaN,0.0018443,7.874,48.695,87,0,NaN,14.669,1007.3,340.19,2e-3,0.039833
0.122,0.88785,15.312,140.16,15.333,140.36,0.04653,0,0.04653,0,0.80247,7.3457,32.9,-106,9.7954,6.813,0,0,0,1242.3,106.35,0.18656,0.0087396,NaN,67.034,NaN,0.045679,1009860,186.89,0.36828,0.46457,0.51379,0.31449,0.029816,0.12027,NaN,NaN,NaN,NaN,NaN,NaN,NaN,NaN,0.0018787,7.874,48.695,87,0,NaN,14.669,1007.3,340.19,2e-3,0.040444
0.124,0.91876,15.592,140.22,15.614,140.41,0.04815,0,0.04815,0,0.81717,7.3484,32.9,-106,9.7954,6.6996,0,0,0,1242.1,106.13,0.18656,0.0087396,NaN,67.031,NaN,0.0465,1027998,186.94,0.38065,0.46459,0.51247,0.31448,0.029827,0.12028,NaN,NaN,NaN,NaN,NaN,NaN,NaN,NaN,0.001913,7.874,48.695,87,0,NaN,14.669,1007.3,340.19,2e-3,0.040812
0.126,0.95022,15.873,140.27,15.895,140.46,0.049799,0,0.049799,0,0.83187,7.3512,32.9,-106,9.7954,6.59,0,0,0,1241.9,105.92,0.18655,0.0087396,NaN,67.029,NaN,0.047321,1046147,186.98,0.39324,0.46461,0.51121,0.31448,0.029838,0.12029,NaN,NaN,NaN,NaN,NaN,NaN,NaN,NaN,0.0019475,7.874,48.695,87,0,NaN,14.669,1007.3,340.19,2e-3,0.041164
0.128,0.98225,16.154,140.32,16.176,140.51,0.051477,0,0.051477,0,0.84657,7.3539,32.9,-106,9.7954,6.4842,0,0,0,1241.7,105.7,0.18654,0.0087396,NaN,67.026,NaN,0.048142,1064305,187.03,0.40604,0.46463,0.51,0.31448,0.029848,0.1203,NaN,NaN,NaN,NaN,NaN,NaN,NaN,NaN,0.0019819,7.874,48.695,87,0,NaN,14.669,1007.3,340.19,2e-3,0.041456
0.13,1.0148,16.434,140.37,16.457,140.56,0.053185,0,0.053185,0,0.86128,7.3566,32.9,-106,9.7954,6.3819,0,0,0,1241.5,105.49,0.18654,0.0087396,NaN,67.023,NaN,0.048964,1082474,187.07,0.41907,0.46465,0.50883,0.31448,0.02986,0.12031,NaN,NaN,NaN,NaN,NaN,NaN,NaN,NaN,0.0020163,7.874,48.695,87,0,NaN,14.668,1007.3,340.19,2e-3,0.041752
0.132,1.048,16.715,140.42,16.738,140.62,0.054923,0,0.054923,0,0.87599,7.3593,32.9,-106,9.7954,6.2829,0,0,0,1241.3,105.27,0.18653,0.0087395,NaN,67.02,NaN,0.049787,1100653,187.12,0.43231,0.46467,0.50772,0.31447,0.029871,0.12032,NaN,NaN,NaN,NaN,NaN,NaN,NaN,NaN,0.0020508,7.874,48.695,87,0,NaN,14.668,1007.3,340.19,2e-3,0.042057
0.134,1.0817,16.996,140.48,17.019,140.67,0.056689,0,0.056689,0,0.89071,7.362,32.9,-106,9.7954,6.1871,0,0,0,1241.1,105.06,0.18653,0.0087395,NaN,67.018,NaN,0.050609,1118841,187.16,0.44577,0.46469,0.50664,0.31447,0.029882,0.12033,NaN,NaN,NaN,NaN,NaN,NaN,NaN,NaN,0.0020852,7.874,48.695,87,0,NaN,14.668,1007.3,340.19,2e-3,0.042344
0.136,1.116,17.277,140.53,17.301,140.72,0.058485,0,0.058485,0,0.90544,7.3647,32.9,-106,9.7954,6.0944,0,0,0,1240.8,104.84,0.18652,0.0087395,NaN,67.015,NaN,0.051433,1137039,187.21,0.45946,0.46471,0.50561,0.31447,0.029894,0.12034,NaN,NaN,NaN,NaN,NaN,NaN,NaN,NaN,0.0021197,7.874,48.695,87,0,NaN,14.668,1007.3,340.19,2e-3,0.042661
0.138,1.1508,17.558,140.58,17.582,140.77,0.060311,0,0.060311,0,0.92017,7.3674,32.9,-106,9.7954,6.0045,0,0,0,1240.6,104.63,0.18651,0.0087395,NaN,67.012,NaN,0.052256,1155247,187.25,0.47336,0.46473,0.50462,0.31447,0.029906,0.12035,NaN,NaN,NaN,NaN,NaN,NaN,NaN,NaN,0.0021542,7.874,48.695,87,0,NaN,14.668,1007.3,340.19,2e-3,0.043014
0.14,1.1862,17.839,140.63,17.864,140.82,0.062166,0,0.062166,0,0.93491,7.3701,32.9,-106,9.7954,5.9174,0,0,0,1240.4,104.41,0.18651,0.0087394,NaN,67.009,NaN,0.053081,1173464,187.3,0.48748,0.46475,0.50367,0.31446,0.029918,0.12037,NaN,NaN,NaN,NaN,NaN,NaN,NaN,NaN,0.0021887,7.874,48.695,87,0,NaN,14.667,1007.2,340.19,2e-3,0.043383
0.142,1.2222,18.12,140.68,18.145,140.87,0.064051,0,0.064051,0,0.94965,7.3728,32.9,-106,9.7954,5.8329,0,0,0,1240.2,104.2,0.1865,0.0087394,NaN,67.007,NaN,0.053905,1191689,187.34,0.50183,0.46477,0.50275,0.31446,0.029931,0.12038,NaN,NaN,NaN,NaN,NaN,NaN,NaN,NaN,0.0022232,7.874,48.695,87,0,NaN,14.667,1007.2,340.19,2e-3,0.043772
0.144,1.2587,18.402,140.73,18.427,140.92,0.065965,0,0.065965,0,0.9644,7.3754,32.9,-106,9.7954,5.7509,0,0,0,1240,103.98,0.18649,0.0087394,NaN,67.004,NaN,0.05473,1209924,187.39,0.5164,0.46479,0.50187,0.31446,0.029943,0.12039,NaN,NaN,NaN,NaN,NaN,NaN,NaN,NaN,0.0022577,7.874,48.695,87,0,NaN,14.667,1007.2,340.19,2e-3,0.044106
0.146,1.2958,18.683,140.78,18.709,140.98,0.067908,0,0.067908,0,0.97915,7.3781,32.9,-106,9.7954,5.6713,0,0,0,1239.8,103.77,0.18649,0.0087394,NaN,67.001,NaN,0.055556,1228167,187.44,0.53119,0.46481,0.50102,0.31446,0.029956,0.1204,NaN,NaN,NaN,NaN,NaN,NaN,NaN,NaN,0.0022923,7.874,48.695,87,0,NaN,14.667,1007.2,340.19,2e-3,0.04542
0.148,1.3334,18.965,140.83,18.991,141.03,0.069881,0,0.069881,0,0.99391,7.3807,32.9,-106,9.7954,5.594,0,0,0,1239.6,103.55,0.18648,0.0087394,NaN,66.998,NaN,0.056382,1246420,187.48,0.5462,0.46483,0.5002,0.31445,0.029969,0.12041,NaN,NaN,NaN,NaN,NaN,NaN,NaN,NaN,0.0023268,7.874,48.695,87,0,NaN,14.666,1007.2,340.19,2e-3,0.045811
0.15,1.3716,19.247,140.88,19.273,141.08,0.071884,0,0.071884,0,1.0087,7.3833,32.9,-106,9.7954,5.519,0,0,0,1239.3,103.34,0.18647,0.0087393,NaN,66.996,NaN,0.057208,1264680,187.53,0.56143,0.46486,0.49941,0.31445,0.029982,0.12043,NaN,NaN,NaN,NaN,NaN,NaN,NaN,NaN,0.0023614,7.874,48.695,87,0,NaN,14.666,1007.2,340.19,2e-3,0.046192
0.152,1.4104,19.528,140.93,19.555,141.13,0.073916,0,0.073916,0,1.0234,7.386,32.9,-106,9.7954,5.4324,0,0,0,1239.1,103.12,0.18647,0.0087393,NaN,66.993,NaN,0.058032,1282904,187.57,0.57668,0.46488,0.4985,0.31445,0.029995,0.12044,NaN,NaN,NaN,NaN,NaN,NaN,NaN,NaN,0.0023959,7.874,48.695,87,0,NaN,14.666,1007.2,340.19,2e-3,0.046521
0.154,1.4497,19.81,140.98,19.837,141.18,0.075978,0,0.075978,0,1.0382,7.3886,32.9,-106,9.7954,5.3482,0,0,0,1238.9,102.91,0.18646,0.0087393,NaN,66.99,NaN,0.058857,1301138,187.62,0.59216,0.4649,0.49763,0.31444,0.030009,0.12045,NaN,NaN,NaN,NaN,NaN,NaN,NaN,NaN,0.0024305,7.874,48.695,87,0,NaN,14.666,1007.2,340.19,2e-3,0.046874
0.156,1.4896,20.092,141.03,20.12,141.23,0.078069,0,0.078069,0,1.053,7.3912,32.9,-106,9.7954,5.2664,0,0,0,1238.7,102.69,0.18646,0.0087393,NaN,66.987,NaN,0.059683,1319380,187.66,0.60785,0.46493,0.49679,0.31444,0.030022,0.12046,NaN,NaN,NaN,NaN,NaN,NaN,NaN,NaN,0.0024651,7.874,48.695,87,0,NaN,14.665,1007.2,340.19,2e-3,0.047177
0.158,1.5301,20.374,141.08,20.402,141.28,0.08019,0,0.08019,0,1.0678,7.3938,32.9,-106,9.7954,5.1867,0,0,0,1238.5,102.48,0.18645,0.0087392,NaN,66.985,NaN,0.060508,1337631,187.71,0.62377,0.46495,0.49598,0.31444,0.030036,0.12048,NaN,NaN,NaN,NaN,NaN,NaN,NaN,NaN,0.0024997,7.874,48.695,87,0,NaN,14.665,1007.2,340.19,2e-3,0.047994
0.16,1.5711,20.657,141.13,20.685,141.33,0.08234,0,0.08234,0,1.0826,7.3964,32.9,-106,9.7954,5.1092,0,0,0,1238.3,102.26,0.18644,0.0087392,NaN,66.982,NaN,0.061335,1355891,187.75,0.63991,0.46497,0.4952,0.31443,0.03005,0.12049,NaN,NaN,NaN,NaN,NaN,NaN,NaN,NaN,0.0025344,7.874,48.695,87,0,NaN,14.665,1007.2,340.19,2e-3,0.048424
0.162,1.6127,20.939,141.18,20.968,141.38,0.08452,0,0.08452,0,1.0974,7.399,32.9,-106,9.7954,5.0337,0,0,0,1238,102.05,0.18644,0.0087392,NaN,66.979,NaN,0.062161,1374160,187.8,0.65627,0.465,0.49445,0.31443,0.030065,0.1205,NaN,NaN,NaN,NaN,NaN,NaN,NaN,NaN,0.002569,7.874,48.695,87,0,NaN,14.665,1007.2,340.19,2e-3,0.04881
0.164,1.6549,21.221,141.23,21.25,141.43,0.086729,0,0.086729,0,1.1122,7.4016,32.9,-106,9.7954,4.9601,0,0,0,1237.8,101.83,0.18643,0.0087392,NaN,66.976,NaN,0.062988,1392437,187.84,0.67286,0.46502,0.49372,0.31443,0.030079,0.12052,NaN,NaN,NaN,NaN,NaN,NaN,NaN,NaN,0.0026036,7.874,48.695,87,0,NaN,14.664,1007.2,340.19,2e-3,0.049158
0.166,1.6976,21.504,141.28,21.533,141.47,0.088969,0,0.088969,0,1.127,7.4042,32.9,-106,9.7954,4.8885,0,0,0,1237.6,101.62,0.18642,0.0087392,NaN,66.974,NaN,0.063816,1410723,187.89,0.68967,0.46505,0.49302,0.31442,0.030094,0.12053,NaN,NaN,NaN,NaN,NaN,NaN,NaN,NaN,0.0026383,7.874,48.695,87,0,NaN,14.664,1007.2,340.19,2e-3,0.049575
0.168,1.7409,21.786,141.33,21.816,141.52,0.091237,0,0.091237,0,1.1418,7.4068,32.9,-106,9.7954,4.8186,0,0,0,1237.4,101.4,0.18642,0.0087391,NaN,66.971,NaN,0.064644,1429017,187.93,0.7067,0.46507,0.49235,0.31442,0.030109,0.12054,NaN,NaN,NaN,NaN,NaN,NaN,NaN,NaN,0.002673,7.874,48.695,87,0,NaN,14.664,1007.2,340.19,2e-3,0.049929
0.17,1.7848,22.069,141.38,22.099,141.57,0.093536,0,0.093536,0,1.1566,7.4093,32.9,-106,9.7954,4.7505,0,0,0,1237.2,101.19,0.18641,0.0087391,NaN,66.968,NaN,0.065472,1447319,187.98,0.72396,0.4651,0.4917,0.31442,0.030124,0.12056,NaN,NaN,NaN,NaN,NaN,NaN,NaN,NaN,0.0027077,7.874,48.695,87,0,NaN,14.663,1007.2,340.18,2e-3,0.050346
0.172,1.8292,22.352,141.43,22.382,141.62,0.095864,0,0.095864,0,1.1714,7.4119,32.9,-106,9.7954,4.6841,0,0,0,1237,100.97,0.1864,0.0087391,NaN,66.965,NaN,0.0663,1465629,188.02,0.74145,0.46512,0.49107,0.31441,0.030139,0.12057,NaN,NaN,NaN,NaN,NaN,NaN,NaN,NaN,0.0027424,7.874,48.695,87,0,NaN,14.663,1007.2,340.18,2e-3,0.050721
0.174,1.8742,22.635,141.48,22.666,141.67,0.098221,0,0.098221,0,1.1862,7.4144,32.9,-106,9.7954,4.6193,0,0,0,1236.8,100.76,0.1864,0.0087391,NaN,66.962,NaN,0.067129,1483948,188.07,0.75917,0.46515,0.49046,0.31441,0.030154,0.12059,NaN,NaN,NaN,NaN,NaN,NaN,NaN,NaN,0.0027771,7.874,48.695,87,0,NaN,14.663,1007.2,340.18,2e-3,0.051019
0.176,1.9197,22.918,141.52,22.949,141.72,0.10061,0,0.10061,0,1.2011,7.417,32.9,-106,9.7954,4.5561,0,0,0,1236.5,100.54,0.18639,0.008739,NaN,66.96,NaN,0.067959,1502274,188.11,0.77711,0.46518,0.48988,0.31441,0.03017,0.1206,NaN,NaN,NaN,NaN,NaN,NaN,NaN,NaN,0.0028118,7.874,48.695,87,0,NaN,14.663,1007.2,340.18,2e-3,0.05132
0.178,1.9658,23.201,141.57,23.233,141.77,0.10303,0,0.10303,0,1.2159,7.4195,32.9,-106,9.7954,4.4943,0,0,0,1236.3,100.33,0.18638,0.008739,NaN,66.957,NaN,0.068788,1520608,188.16,0.79527,0.4652,0.48931,0.3144,0.030186,0.12062,NaN,NaN,NaN,NaN,NaN,NaN,NaN,NaN,0.0028465,7.874,48.695,87,0,NaN,14.662,1007.2,340.18,2e-3,0.051658
0.18,2.0125,23.484,141.62,23.516,141.81,0.10547,0,0.10547,0,1.2307,7.422,32.9,-106,9.7954,4.434,0,0,0,1236.1,100.11,0.18638,0.008739,NaN,66.954,NaN,0.069618,1538950,188.2,0.81367,0.46523,0.48876,0.3144,0.030202,0.12063,NaN,NaN,NaN,NaN,NaN,NaN,NaN,NaN,0.0028813,7.874,48.695,87,0,NaN,14.662,1007.1,340.18,2e-3,0.052014
0.182,2.0598,23.767,141.67,23.8,141.86,0.10795,0,0.10795,0,1.2456,7.4245,32.9,-106,9.7954,4.3752,0,0,0,1235.9,99.896,0.18637,0.008739,NaN,66.951,NaN,0.070449,1557300,188.25,0.83229,0.46526,0.48824,0.3144,0.030218,0.12065,NaN,NaN,NaN,NaN,NaN,NaN,NaN,NaN,0.002916,7.874,48.695,87,0,NaN,14.662,1007.1,340.18,2e-3,0.052364
0.184,2.1076,24.051,141.72,24.084,141.91,0.11045,0,0.11045,0,1.2604,7.427,32.9,-106,9.7954,4.3177,0,0,0,1235.7,99.681,0.18637,0.0087389,NaN,66.949,NaN,0.071279,1575657,188.29,0.85114,0.46529,0.48773,0.31439,0.030235,0.12066,NaN,NaN,NaN,NaN,NaN,NaN,NaN,NaN,0.0029508,7.874,48.695,87,0,NaN,14.661,1007.1,340.18,2e-3,0.052827
0.186,2.156,24.334,141.76,24.367,141.96,0.11299,0,0.11299,0,1.2753,7.4295,32.9,-106,9.7954,4.2614,0,0,0,1235.5,99.466,0.18636,0.0087389,NaN,66.946,NaN,0.07211,1594022,188.34,0.87022,0.46532,0.48723,0.31439,0.030251,0.12068,NaN,NaN,NaN,NaN,NaN,NaN,NaN,NaN,0.0029856,7.874,48.695,87,0,NaN,14.661,1007.1,340.18,2e-3,0.053226
0.188,2.2049,24.618,141.81,24.651,142.01,0.11556,0,0.11556,0,1.2902,7.432,32.9,-106,9.7954,4.2065,0,0,0,1235.3,99.251,0.18635,0.0087389,NaN,66.943,NaN,0.072942,1612394,188.39,0.88952,0.46535,0.48676,0.31439,0.030268,0.12069,NaN,NaN,NaN,NaN,NaN,NaN,NaN,NaN,0.0030203,7.874,48.695,87,0,NaN,14.661,1007.1,340.18,2e-3,0.053562
0.19,2.2545,24.901,141.86,24.935,142.05,0.11815,0,0.11815,0,1.305,7.4344,32.9,-106,9.7954,4.1528,0,0,0,1235,99.036,0.18635,0.0087389,NaN,66.94,NaN,0.073774,1630774,188.43,0.90906,0.46537,0.4863,0.31438,0.030285,0.12071,NaN,NaN,NaN,NaN,NaN,NaN,NaN,NaN,0.0030551,7.874,48.695,87,0,NaN,14.66,1007.1,340.18,2e-3,0.053895
0.192,2.3045,25.185,141.9,25.22,142.1,0.12078,0,0.12078,0,1.3199,7.4369,32.9,-106,9.7954,4.1002,0,0,0,1234.8,98.821,0.18634,0.0087389,NaN,66.937,NaN,0.074606,1649160,188.48,0.92883,0.4654,0.48585,0.31438,0.030303,0.12072,NaN,NaN,NaN,NaN,NaN,NaN,NaN,NaN,0.00309,7.874,48.695,87,0,NaN,14.66,1007.1,340.18,2e-3,0.054182
0.194,2.3552,25.469,141.95,25.504,142.15,0.12343,0,0.12343,0,1.3348,7.4394,32.9,-106,9.7954,4.0488,0,0,0,1234.6,98.606,0.18633,0.0087388,NaN,66.935,NaN,0.075438,1667555,188.52,0.94882,0.46543,0.48542,0.31437,0.03032,0.12074,NaN,NaN,NaN,NaN,NaN,NaN,NaN,NaN,0.0031248,7.874,48.695,87,0,NaN,14.66,1007.1,340.18,2e-3,0.05455
0.196,2.4064,25.753,142,25.788,142.19,0.12611,0,0.12611,0,1.3496,7.4418,32.9,-106,9.7954,3.9985,0,0,0,1234.4,98.391,0.18633,0.0087388,NaN,66.932,NaN,0.076271,1685956,188.57,0.96905,0.46546,0.48501,0.31437,0.030338,0.12076,NaN,NaN,NaN,NaN,NaN,NaN,NaN,NaN,0.0031596,7.874,48.695,87,0,NaN,14.659,1007.1,340.18,2e-3,0.054858
0.198,2.4582,26.037,142.11,26.072,142.25,0.12883,0,0.12883,0,1.3645,6.2036,32.9,-106,9.7954,3.9493,0,0,0,1234.2,98.176,0.18632,0.0087388,72.595,66.929,0.7195,0.077104,1704364,188.62,0.98951,0.46549,0.4846,0.31437,0.030356,0.12077,1.0588,0.76185,4.109e-4,0,0,0,0,0,0.0031945,7.874,48.695,87,0,NaN,14.659,1007.1,340.18,3e-3,0.055716
0.201,2.537,26.463,142.18,26.499,142.32,0.13295,0,0.13295,2.1047e-7,1.3831,6.185,32.9,-106,9.7954,3.8778,0,0.11396,-2.0718e-5,1233.9,97.908,0.18631,0.0087388,72.62,66.926,0.72319,0.078355,1732005,188.71,1.0207,0.46554,0.48403,0.31436,0.030383,0.1208,1.0384,0.75065,-4.9496e-4,0,0,0,0,1.6312e-6,0.0032467,7.874,48.695,87,1.132e-6,NaN,14.659,1007.1,340.18,0.0045,0.056231
0.2055,2.6575,27.103,142.29,27.14,142.42,0.13924,0,0.13924,1.2631e-6,1.4109,6.1464,32.9,-106,9.7954,3.7991,0,0.28938,-8.0078e-6,1233.5,97.504,0.1863,0.0087387,72.648,66.92,0.72745,0.080237,1773586,188.83,1.0689,0.46561,0.48342,0.31435,0.030425,0.12084,1.016,0.73919,-9.846e-5,0,0,0,0,1.0031e-5,0.0033252,7.874,48.695,86.999,8.439e-7,NaN,14.658,1007.1,340.18,0.00675,0.057197
0.21225,2.8437,28.064,142.45,28.101,142.58,0.1489,1.117e-8,0.1489,4.2982e-6,1.4521,6.093,32.9,-106,9.7954,3.6852,0,0.56281,-2.9487e-5,1232.9,96.9,0.18628,0.0087387,72.69,66.913,0.73367,0.083063,1836013,189.02,1.1435,0.46572,0.48257,0.31434,0.03049,0.1209,0.98363,0.72179,3.3423e-4,0,0,0,0,3.5404e-5,0.003443,7.874,48.695,86.996,4.2052e-6,NaN,14.657,1007.1,340.18,0.01,0.057504
0.22225,3.1314,29.489,142.69,29.528,142.82,0.16372,3.2782e-8,0.16372,1.1472e-5,1.5127,6.025,32.9,-106,9.7954,3.5246,0,0.99087,-5.8115e-5,1232,95.999,0.18625,0.0087386,72.748,66.901,0.74256,0.087254,1928619,189.25,1.2588,0.46589,0.48143,0.31431,0.03059,0.12099,0.93822,0.6962,-1.2383e-4,0,0,0,0,9.9449e-5,0.0036178,7.874,48.695,86.988,1.9599e-5,NaN,14.655,1007,340.18,0.01,0.057798
0.23225,3.4335,30.917,142.91,30.957,143.04,0.17915,6.6406e-8,0.17915,2.1238e-5,1.5726,5.971,32.9,-106,9.7954,3.372,0,1.4458,3.0656e-5,1230.9,94.924,0.18622,0.0087384,72.804,66.887,0.75142,0.091453,2021373,189.48,1.3798,0.46607,0.48039,0.31429,0.030695,0.12109,0.89529,0.673,2.2911e-4,0,0,0,0,1.9273e-4,0.0037928,7.874,48.695,86.976,2.2809e-5,NaN,14.653,1007,340.18,0.01,0.058149
0.24225,3.7498,32.346,143.13,32.388,143.25,0.19518,1.1244e-7,0.19518,3.3008e-5,1.6321,5.9333,32.9,-106,9.7954,3.2258,0,1.9274,-4.5365e-5,1229.8,93.849,0.18619,0.0087383,72.857,66.873,0.76003,0.095659,2114270,189.7,1.5067,0.46626,0.47946,0.31426,0.030806,0.12119,0.85437,0.64927,8.3638e-7,0,0,0,0,3.1309e-4,0.003968,7.874,48.695,86.959,2.3701e-5,NaN,14.651,1006.9,340.18,0.01,0.058564
0.25225,4.0804,33.778,143.34,33.821,143.46,0.21179,1.7113e-7,0.21179,4.6296e-5,1.6913,5.9189,32.9,-106,9.7954,3.0781,0,2.4346,-2.2156e-5,1228.8,92.774,0.18616,0.0087382,72.912,66.859,0.76876,0.09987,2207279,189.93,1.6391,0.46646,0.47856,0.31424,0.030922,0.1213,0.81322,0.62437,-2.5742e-5,0,0,0,0,4.5827e-4,0.0041436,7.874,48.695,86.938,2.639e-5,NaN,14.648,1006.9,340.18,0.01,0.058903
0.26225,4.4254,35.212,143.55,35.256,143.67,0.229,2.4295e-7,0.229,6.0785e-5,1.7506,5.943,32.9,-106,9.7954,2.9135,0,2.9636,-2.5867e-4,1227.7,91.699,0.18612,0.0087381,72.973,66.845,0.77833,0.10408,2300335,190.16,1.7766,0.46666,0.47759,0.31421,0.031043,0.12141,0.76757,0.59721,-3.7784e-4,0,0,0,0,6.2524e-4,0.0043194,7.874,48.695,86.911,5.1114e-5,NaN,14.646,1006.9,340.17,0.01,0.05923
0.27225,4.7847,36.648,143.75,36.693,143.87,0.24681,3.2859e-7,0.24681,7.6282e-5,1.8102,5.9901,32.9,-106,9.7954,2.7544,0,3.5113,-1.3239e-4,1226.6,90.624,0.18609,0.008738,73.033,66.831,0.78769,0.1083,2393530,190.38,1.92,0.46688,0.47672,0.31418,0.031169,0.12152,0.72368,0.56891,3.7155e-4,0,0,0,0,8.1061e-4,0.0044954,7.874,48.695,86.878,8.2486e-5,NaN,14.644,1006.8,340.17,0.01,0.059598
0.28225,5.1583,38.086,143.94,38.132,144.07,0.26521,4.2893e-7,0.26521,9.2666e-5,1.8704,6.0617,32.9,-106,9.7954,2.5998,0,4.0753,-2.1377e-4,1225.5,89.549,0.18606,0.0087379,73.091,66.817,0.7969,0.11253,2486860,190.61,2.0693,0.4671,0.47593,0.31415,0.031301,0.12165,0.68127,0.54161,3.7142e-4,0,0,0,0,0.0010114,0.0046717,7.874,48.695,86.84,1.2175e-4,NaN,14.641,1006.8,340.17,0.01,0.060011
0.29225,5.5464,39.526,143.91,39.573,144.04,0.28422,5.451e-7,0.28422,1.0989e-4,1.9314,6.1469,32.9,-106,9.7954,2.4489,0,4.6538,-3.055e-4,1224.5,88.474,0.18603,0.0087378,73.149,66.803,0.80597,0.11676,2580321,190.56,2.2245,0.46733,0.47522,0.31412,0.031438,0.12177,0.64007,0.51434,-2.3201e-4,0,0,0,0,0.0012251,0.0048483,7.874,48.695,86.797,1.7949e-4,NaN,14.639,1006.7,340.17,0.01,0.060336
0.30225,5.9489,40.966,143.57,41.014,143.7,0.30384,6.7841e-7,0.30384,1.2793e-4,1.9935,6.2502,32.9,-106,9.7954,2.2942,0,5.2435,-5.9964e-5,1223.4,87.404,0.18599,0.0087377,73.208,66.789,0.81527,0.12099,2673732,190.14,2.3851,0.46758,0.47455,0.31409,0.03158,0.1219,0.59805,0.48656,-2.5882e-4,0,0,0,0,0.0014484,0.0050248,7.874,48.695,86.747,2.1156e-4,NaN,14.636,1006.7,340.17,0.01,0.060663
0.31225,6.3657,42.402,143.21,42.452,143.36,0.32409,8.2983e-7,0.32409,1.467e-4,2.0569,6.4091,32.9,-106,9.7954,2.12,0,5.8366,-3.8638e-5,1222.3,86.337,0.18596,0.0087375,73.275,66.774,0.82555,0.12521,2766821,189.72,2.5503,0.46782,0.47383,0.31406,0.031728,0.12204,0.55099,0.4531,-1.9373e-4,0,0,0,0,0.0016757,0.0052009,7.874,48.695,86.692,2.1643e-4,NaN,14.634,1006.6,340.17,0.01,0.061015
0.32225,6.7969,43.834,142.85,43.886,143.01,0.34498,9.9984e-7,0.34498,1.6606e-4,2.122,6.5987,32.9,-106,9.7954,1.9503,0,6.4264,2.0019e-4,1221.3,85.272,0.18593,0.0087374,73.341,66.76,0.83568,0.12942,2859693,189.3,2.7209,0.46808,0.4732,0.31403,0.031879,0.12218,0.50542,0.42009,1.3472e-4,0,0,0,0,0.0019016,0.0053765,7.874,48.695,86.63,2.0424e-4,NaN,14.631,1006.6,340.17,0.01,0.061387
0.33225,7.2424,45.263,142.49,45.316,142.65,0.36654,1.1885e-6,0.36654,1.8577e-4,2.1892,6.8195,32.9,-106,9.7954,1.7846,0,7.0087,1.9587e-5,1220.2,84.206,0.1859,0.0087373,73.405,66.746,0.84567,0.13362,2952343,188.88,2.8968,0.46835,0.47267,0.31399,0.032036,0.12232,0.46115,0.38799,-1.0209e-4,0,0,0,0,0.0021219,0.0055518,7.874,48.695,86.563,1.8953e-4,NaN,14.628,1006.5,340.16,0.01,0.061702
0.34225,7.7021,46.688,142.12,46.743,142.29,0.38877,1.3958e-6,0.38877,2.0571e-4,2.2587,7.0719,32.9,-106,9.7954,1.6224,0,7.5789,6.1116e-5,1219.1,83.14,0.18586,0.0087372,73.469,66.732,0.85555,0.13781,3044767,188.46,3.0782,0.46862,0.47222,0.31396,0.032198,0.12247,0.41807,0.35574,-1.1205e-4,0,0,0,0,0.0023327,0.0057266,7.874,48.695,86.49,1.9265e-4,NaN,14.625,1006.5,340.16,0.01,0.062053
0.35225,8.1761,48.11,141.74,48.166,141.93,0.41172,1.6221e-6,0.41172,2.2574e-4,2.331,7.3482,32.9,-106,9.7954,1.4687,0,8.1323,-2.1496e-5,1218.1,82.075,0.18583,0.0087371,73.53,66.718,0.86506,0.14199,3136985,188.04,3.2651,0.4689,0.47187,0.31392,0.032364,0.12262,0.37744,0.32371,-8.0899e-5,0,0,0,0,0.0025301,0.005901,7.874,48.695,86.412,1.9208e-4,NaN,14.622,1006.4,340.16,0.01,0.064054
0.36225,8.6643,49.527,141.35,49.586,141.56,0.4354,1.868e-6,0.4354,2.4582e-4,2.406,7.6285,32.9,-106,9.7954,1.3349,0,8.6692,3.6114e-4,1217,81.009,0.1858,0.008737,73.583,66.704,0.87364,0.14616,3229052,187.62,3.4582,0.46919,0.47166,0.31388,0.032536,0.12278,0.34227,0.29591,-2.3586e-4,0,0,0,0,0.0027133,0.0060749,7.874,48.695,86.328,1.8111e-4,NaN,14.619,1006.4,340.16,0.01,0.064433
0.37225,9.1666,50.941,140.96,51.002,141.18,0.45985,2.133e-6,0.45985,2.6577e-4,2.4839,7.9395,32.9,-106,9.7954,1.2023,0,9.1863,1.6437e-4,1215.9,79.943,0.18577,0.0087369,73.636,66.69,0.88219,0.15032,3320875,187.2,3.6565,0.46949,0.4715,0.31384,0.032712,0.12294,0.30756,0.26879,-3.7082e-4,0,0,0,0,0.0028803,0.0062484,7.874,48.695,86.238,1.4372e-4,NaN,14.615,1006.3,340.16,0.01,0.064787
0.38225,9.6831,52.351,140.56,52.414,140.8,0.48509,2.4165e-6,0.48509,2.8542e-4,2.5651,8.2809,32.9,-106,9.7954,1.0708,0,9.6794,4.24e-4,1214.9,78.877,0.18573,0.0087368,73.689,66.675,0.89072,0.15447,3412451,186.78,3.8603,0.4698,0.4714,0.3138,0.032893,0.1231,0.27331,0.24014,4.2119e-4,0,0,0,0,0.0030283,0.0064214,7.874,48.695,86.144,1.2586e-4,NaN,14.612,1006.3,340.15,0.01,0.06566
0.39225,10.214,53.757,140.15,53.822,140.41,0.51116,2.7185e-6,0.51116,3.0472e-4,2.6499,8.6523,32.9,-106,9.7954,0.94071,0,10.142,-3.1169e-5,1213.8,77.812,0.1857,0.0087366,73.742,66.661,0.89922,0.15862,3503775,186.36,4.0694,0.47011,0.47136,0.31376,0.033078,0.12327,0.23956,0.21216,3.1181e-4,0,0,0,0,0.0031531,0.0065939,7.874,48.695,86.045,1.3735e-4,NaN,14.609,1006.2,340.15,0.01,0.066363
0.40225,10.758,55.158,139.73,55.226,140.02,0.5381,3.04e-6,0.5381,3.237e-4,2.7386,9.0526,32.9,-106,9.7954,0.81213,0,10.568,-3.8503e-5,1212.7,76.746,0.18567,0.0087365,73.794,66.647,0.90769,0.16275,3594843,185.94,4.2839,0.47043,0.47137,0.31372,0.033269,0.12344,0.20636,0.18421,3.5164e-4,0,0,0,0,0.0032524,0.006766,7.874,48.695,85.941,1.9519e-4,NaN,14.605,1006.1,340.15,0.01,0.066694
0.41225,11.317,56.555,139.3,56.626,139.63,0.56595,3.3832e-6,0.56595,3.4251e-4,2.8314,9.4802,32.9,-106,9.7954,0.68548,0,10.953,-4.869e-4,1211.7,75.68,0.18563,0.0087364,73.846,66.633,0.91609,0.16687,3685651,185.52,4.5038,0.47076,0.47143,0.31368,0.033463,0.12362,0.17379,0.15635,1.3873e-4,0,0,0,0,0.003323,0.0069376,7.874,48.695,85.834,2.7178e-4,NaN,14.601,1006.1,340.15,0.01,0.067207
0.42225,11.889,57.949,138.87,58.022,139.23,0.59474,3.751e-6,0.59474,3.6136e-4,2.9286,9.9339,32.9,-106,9.7954,0.56082,0,11.29,-1.3482e-5,1210.6,74.614,0.1856,0.0087363,73.897,66.618,0.92443,0.17097,3776195,185.1,4.7291,0.4711,0.47155,0.31363,0.033663,0.1238,0.14188,0.12755,-2.0474e-4,0,0,0,0,0.0033635,0.0071088,7.874,48.695,85.722,3.365e-4,NaN,14.598,1006,340.15,0.01,0.067557
0.43225,12.476,59.337,138.43,59.415,138.82,0.62453,4.1457e-6,0.62453,3.8033e-4,3.0304,10.412,32.9,-106,9.7954,0.4385,0,11.574,8.8201e-5,1209.5,73.549,0.18557,0.0087362,73.948,66.604,0.93269,0.17507,3866469,184.68,4.9599,0.47144,0.47172,0.31359,0.033867,0.12398,0.1107,0.10035,-2.4374e-4,0,0,0,0,0.0033714,0.0072794,7.874,48.695,85.608,3.5409e-4,NaN,14.594,1005.9,340.14,0.01,0.067938
0.44225,13.076,60.721,137.98,60.802,138.41,0.65537,4.5685e-6,0.65537,3.994e-4,3.1372,10.911,32.9,-106,9.7954,0.31894,0,11.8,8.0529e-4,1208.5,72.483,0.18554,0.0087361,73.998,66.59,0.94084,0.17915,3956469,184.26,5.1961,0.47179,0.47194,0.31354,0.034076,0.12417,0.08035,0.072078,1.2436e-4,0,0,0,0,0.0033461,0.0074495,7.874,48.695,85.491,3.4539e-4,NaN,14.59,1005.9,340.14,0.01,0.068277
0.45225,13.69,62.101,137.52,62.186,137.99,0.68729,5.0199e-6,0.68729,4.1848e-4,3.2491,11.456,32.9,-106,9.7954,0.19168,0,11.959,3.1021e-4,1207.4,71.417,0.1855,0.008736,74.051,66.575,0.94942,0.18322,4046126,183.84,5.4375,0.47215,0.4722,0.3135,0.034289,0.12436,0.048184,0.042153,-4.0562e-4,0,0,0,0,0.0032863,0.0076191,7.874,48.695,85.372,3.4811e-4,NaN,14.586,1005.8,340.14,0.01,0.068586
0.46225,14.318,63.476,137.01,63.565,137.55,0.72037,5.501e-6,0.72037,4.3753e-4,3.3671,12.104,32.9,-106,9.7954,0.0326,0,12.026,0.0022118,1206.4,70.351,0.18547,0.0087359,74.118,66.561,0.95971,0.18727,4135276,183.39,5.6837,0.47251,0.47252,0.31345,0.034506,0.12456,0.0081718,0.0048784,2.0172e-4,0,0,0,0,0.0031812,0.0077883,7.874,48.695,85.252,4.2734e-4,NaN,14.582,1005.7,340.14,0.01,0.068883
0.47225,14.96,64.846,136.43,64.94,137.02,0.75466,6.016e-6,0.75466,4.5675e-4,3.4916,12.757,32.9,-106,9.7954,0.11885,0,-11.985,0.0013496,1205.3,69.305,0.18544,0.0087358,74.083,66.547,0.95714,0.19131,4224122,182.85,5.9357,0.47289,0.47291,0.3134,0.034728,0.12476,0.029843,0.031098,3.985e-4,0,0,0,0,-0.0030277,0.0079568,7.874,48.695,85.132,5.9588e-4,NaN,14.578,1005.6,340.13,0.01,0.069172
0.48225,15.615,66.21,135.83,66.309,136.49,0.79022,6.5723e-6,0.79022,4.7653e-4,3.6227,13.418,32.9,-106,9.7954,0.26196,0,-11.832,4.6209e-4,1204.3,68.287,0.1854,0.0087356,74.026,66.533,0.95159,0.19532,4312606,182.31,6.1932,0.47327,0.47337,0.31335,0.034953,0.12496,0.065958,0.065546,2.112e-4,0,0,0,0,-0.0028307,0.0081247,7.874,48.695,85.013,7.3343e-4,NaN,14.574,1005.6,340.13,0.01,0.069497
0.49225,16.284,67.568,135.22,67.672,135.95,0.82713,7.1767e-6,0.82713,4.9714e-4,3.7604,14.081,32.9,-106,9.7954,0.396,0,-11.566,3.6473e-4,1203.3,67.275,0.18537,0.0087355,73.972,66.519,0.94655,0.19933,4400721,181.76,6.4561,0.47365,0.47388,0.3133,0.035183,0.12517,0.099965,0.097289,4.8391e-4,0,0,0,0,-0.0025974,0.008292,7.874,48.695,84.896,8.1069e-4,NaN,14.569,1005.5,340.13,0.01,0.069813
0.50225,16.966,68.919,134.6,69.03,135.4,0.86545,7.835e-6,0.86545,5.187e-4,3.9048,14.727,32.9,-106,9.7954,0.51694,0,-11.187,6.2909e-4,1202.3,66.264,0.18534,0.0087354,73.924,66.505,0.94222,0.20331,4488481,181.22,6.7243,0.47404,0.47443,0.31325,0.035417,0.12537,0.1308,0.12554,4.6096e-4,0,0,0,0,-0.0023355,0.0084585,7.874,48.695,84.782,9.0589e-4,NaN,14.565,1005.4,340.13,0.01,0.070112
0.51225,17.662,70.265,133.98,70.382,134.85,0.90525,8.5524e-6,0.90525,5.4131e-4,4.0553,15.324,32.9,-106,9.7954,0.61648,0,-10.703,3.0717e-4,1201.3,65.253,0.18531,0.0087353,73.885,66.491,0.93903,0.20729,4575935,180.67,6.9974,0.47444,0.47499,0.3132,0.035656,0.12559,0.15628,0.14855,2.1284e-4,0,0,0,0,-0.0020567,0.0086244,7.874,48.695,84.672,9.8048e-4,NaN,14.56,1005.3,340.12,0.01,0.07043
0.52225,18.372,71.604,133.35,71.728,134.3,0.94658,9.3347e-6,0.94658,5.6502e-4,4.2117,15.899,32.9,-106,9.7954,0.706,0,-10.121,4.0477e-4,1200.2,64.241,0.18528,0.0087352,73.851,66.478,0.93637,0.21125,4663005,180.13,7.2753,0.47485,0.47556,0.31315,0.035898,0.1258,0.17929,0.17006,-3.4058e-4,0,0,0,0,-0.0017706,0.0087896,7.874,48.695,84.568,0.0010444,NaN,14.556,1005.2,340.12,0.01,0.070827
0.53225,19.094,72.937,132.73,73.068,133.74,0.9895,1.0186e-5,0.9895,5.8983e-4,4.3737,16.444,32.9,-106,9.7954,0.78495,0,-9.4394,3.5778e-4,1199.2,63.23,0.18525,0.0087351,73.82,66.464,0.93427,0.21519,4749686,179.58,7.5578,0.47526,0.47614,0.3131,0.036144,0.12602,0.19965,0.18833,1.9421e-4,0,0,0,0,-0.0014845,0.0089541,7.874,48.695,84.47,0.001122,NaN,14.551,1005.1,340.12,0.01,0.071151
0.54225,19.83,74.264,132.1,74.403,133.18,1.0341,1.1113e-5,1.0341,6.1575e-4,4.5409,16.952,32.9,-106,9.7954,0.85285,0,-8.6664,5.8427e-4,1198.2,62.218,0.18521,0.008735,73.794,66.45,0.93274,0.21911,4835975,179.04,7.8448,0.47568,0.47672,0.31304,0.036395,0.12624,0.21722,0.20378,1.6377e-4,0,0,0,0,-0.0012069,0.0091179,7.874,48.695,84.38,0.0011846,NaN,14.546,1005.1,340.11,0.01,0.071466
0.55225,20.579,75.585,131.47,75.731,132.61,1.0803,1.212e-5,1.0803,6.4278e-4,4.713,17.381,32.9,-106,9.7954,0.90002,0,-7.8082,7.8784e-4,1197.2,61.207,0.18518,0.0087349,73.777,66.436,0.93229,0.22302,4921936,178.49,8.1357,0.4761,0.47726,0.31299,0.036649,0.12647,0.22946,0.21454,-2.94e-4,0,0,0,0,-9.4567e-4,0.009281,7.874,48.695,84.297,0.0012741,NaN,14.541,1005,340.11,0.01,0.072096
0.56225,21.342,76.899,130.86,77.054,132.04,1.1283,1.3213e-5,1.1283,6.7093e-4,4.8885,17.64,32.9,-106,9.7954,0.90497,0,-6.8966,0.0017769,1196.2,60.196,0.18515,0.0087348,73.776,66.422,0.93398,0.22692,5007736,177.95,8.4301,0.47654,0.47771,0.31293,0.036908,0.12669,0.23077,0.21603,-2.9874e-4,0,0,0,0,-7.1259e-4,0.0094434,7.874,48.695,84.224,0.0014256,NaN,14.536,1004.9,340.11,0.01,0.072617
0.57225,22.117,78.207,130.24,78.371,131.46,1.1781,1.4403e-5,1.1781,7.0049e-4,5.0662,17.842,32.9,-106,9.7954,0.90089,0,-5.9518,0.0018866,1195.2,59.184,0.18512,0.0087347,73.779,66.408,0.93613,0.23081,5093145,177.4,8.7283,0.47697,0.47814,0.31288,0.037171,0.12693,0.22974,0.21563,-1.5967e-4,0,0,0,0,-5.1302e-4,0.0096051,7.874,48.695,84.16,0.0016445,NaN,14.531,1004.8,340.1,0.01,0.073011
0.58225,22.906,79.509,129.63,79.682,130.87,1.2297,1.5705e-5,1.2297,7.3177e-4,5.2457,17.983,32.9,-106,9.7954,0.88787,0,-4.9805,0.0026082,1194.2,58.173,0.18509,0.0087346,73.786,66.394,0.93874,0.23468,5178160,176.86,9.0303,0.47742,0.47855,0.31282,0.037438,0.12716,0.2264,0.21336,6.2989e-5,0,0,0,0,-3.4749e-4,0.0097661,7.874,48.695,84.105,0.0018889,NaN,14.526,1004.7,340.1,0.01,0.073332
0.59225,23.708,80.805,129.02,80.987,130.28,1.283,1.7135e-5,1.283,7.6519e-4,5.4262,18.06,32.9,-106,9.7954,0.8661,0,-3.9949,0.003327,1193.2,57.162,0.18505,0.0087345,73.796,66.38,0.9418,0.23853,5262779,176.31,9.3361,0.47787,0.47895,0.31276,0.037709,0.1274,0.22079,0.20802,-1.2885e-4,0,0,0,0,-2.1642e-4,0.0099263,7.874,48.695,84.06,0.0021945,NaN,14.521,1004.6,340.1,0.01,0.07365
0.60225,24.522,82.095,128.42,82.286,129.69,1.3382,1.8715e-5,1.3382,8.013e-4,5.6073,18.09,32.9,-106,9.7954,0.84034,0,-3.0031,0.002573,1192.2,56.15,0.18502,0.0087344,73.808,66.366,0.94506,0.24236,5346962,175.77,9.6455,0.47832,0.47934,0.3127,0.037983,0.12764,0.21416,0.20218,2.7053e-4,0,0,0,0,-1.1846e-4,0.010086,7.874,48.695,84.025,0.0025123,NaN,14.516,1004.5,340.1,0.01,0.073961
0.61225,25.349,83.379,127.81,83.579,129.09,1.3952,2.0466e-5,1.3952,8.4047e-4,5.7887,18.119,32.9,-106,9.7953,0.82108,0,-2.003,0.0034842,1191.1,55.139,0.18499,0.0087343,73.817,66.352,0.94801,0.24617,5430613,175.22,9.9588,0.47879,0.47976,0.31265,0.038261,0.12788,0.2092,0.19852,3.4462e-4,0,0,0,0,-5.1083e-5,0.010245,7.874,48.695,84,0.00283,NaN,14.51,1004.4,340.09,0.01,0.074286
0.62225,26.19,84.656,127.2,84.867,128.48,1.454,2.241e-5,1.454,8.8308e-4,5.97,18.076,32.9,-106,9.7953,0.7928,0,-0.9961,0.0025588,1190.1,54.128,0.18496,0.0087342,73.83,66.338,0.95141,0.24996,5513859,174.68,10.276,0.47925,0.48016,0.31259,0.038542,0.12812,0.20192,0.19173,-2.8495e-4,0,0,0,0,-1.2253e-5,0.010403,7.874,48.695,83.985,0.0031479,NaN,14.505,1004.3,340.09,0.01,0.074624
0.63225,27.043,85.928,126.6,86.148,127.87,1.5146,2.4567e-5,1.5146,9.2936e-4,6.1505,17.962,32.9,-106,9.7953,0.75594,0,1.4907e-4,0.0030535,1189.1,53.116,0.18492,0.0087341,73.846,66.324,0.95526,0.25374,5596696,174.13,10.596,0.47972,0.48055,0.31253,0.038827,0.12837,0.19244,0.18427,3.9209e-4,0,0,0,0,0,0.01056,7.874,48.695,83.98,0.0034167,NaN,14.499,1004.2,340.09,0.01,0.07496
0.64225,27.908,87.194,126,87.423,127.25,1.577,2.6956e-5,1.577,9.7938e-4,6.3296,17.774,32.9,-106,9.7953,0.71103,0,0.97886,0.0018294,1188.1,52.105,0.18489,0.0087339,73.865,66.31,0.95953,0.25749,5679124,173.59,10.92,0.4802,0.48094,0.31247,0.039115,0.12862,0.18088,0.17388,-2.3078e-4,0,0,0,0,1.1151e-5,0.010717,7.874,48.695,83.985,0.0036232,NaN,14.494,1004.1,340.08,0.01,0.075284
0.65225,28.786,88.454,125.41,88.693,126.63,1.6412,2.9589e-5,1.6412,0.001033,6.5064,17.52,32.9,-106,9.7953,0.65971,0,1.9213,6.7397e-4,1187.1,51.094,0.18486,0.0087338,73.887,66.296,0.96413,0.26123,5761132,173.04,11.247,0.48068,0.48132,0.31241,0.039407,0.12887,0.1677,0.16209,-2.3419e-4,0,0,0,0,4.1738e-5,0.010873,7.874,48.695,83.999,0.003722,NaN,14.488,1004,340.08,0.01,0.07619
0.66225,29.677,89.707,124.82,89.956,126,1.7071,3.2472e-5,1.7071,0.0010899,6.6804,17.213,32.9,-106,9.7953,0.60495,0,2.8206,0.0015993,1186.1,50.082,0.18483,0.0087337,73.911,66.282,0.96892,0.26495,5842693,172.5,11.577,0.48117,0.48171,0.31234,0.039702,0.12913,0.15365,0.14874,3.7164e-4,0,0,0,0,8.745e-5,0.011028,7.874,48.695,84.023,0.0037938,NaN,14.482,1003.9,340.08,0.01,0.076788
0.67225,30.581,90.955,124.23,91.213,125.36,1.7747,3.5606e-5,1.7747,0.0011495,6.851,16.838,32.9,-106,9.7953,0.54411,0,3.6636,5.9775e-4,1185.1,49.071,0.18479,0.0087336,73.937,66.267,0.97403,0.26865,5923838,171.95,11.911,0.48167,0.4821,0.31228,0.040001,0.12938,0.13806,0.13428,9.7263e-5,0,0,0,0,1.435e-4,0.011182,7.874,48.695,84.056,0.0037729,NaN,14.476,1003.8,340.07,0.01,0.077311
0.68225,31.496,92.197,123.53,92.464,124.61,1.8441,3.8986e-5,1.8441,0.0012113,7.0175,16.388,32.9,-106,9.7953,0.47811,0,4.437,0.002063,1184.1,48.059,0.18476,0.0087335,73.965,66.253,0.97942,0.27233,6004563,171.28,12.249,0.48216,0.4825,0.31222,0.040303,0.12964,0.12119,0.11898,8.4086e-5,0,0,0,0,2.0483e-4,0.011336,7.874,48.695,84.096,0.0037685,NaN,14.47,1003.7,340.07,0.01,0.077824
0.69225,32.424,93.432,122.68,93.708,123.7,1.9151,4.2606e-5,1.9151,0.0012747,7.1792,15.864,32.9,-106,9.7953,0.40796,0,5.1276,0.0028817,1183.1,47.098,0.18473,0.0087334,73.995,66.24,0.98495,0.276,6084790,170.42,12.59,0.48267,0.48291,0.31216,0.040608,0.1299,0.10329,0.10114,-1.2188e-4,0,0,0,0,2.6635e-4,0.011489,7.874,48.695,84.144,0.0038389,NaN,14.464,1003.6,340.06,0.01,0.078289
0.70225,33.365,94.659,121.83,94.943,122.78,1.9877,4.6467e-5,1.9877,0.0013394,7.3354,15.29,32.9,-106,9.7953,0.33516,0,5.7263,0.0044202,1182.2,46.191,0.1847,0.0087333,74.026,66.227,0.99053,0.27963,6164411,169.57,12.934,0.48317,0.48334,0.31209,0.040916,0.13017,0.084759,0.083306,1.2125e-4,0,0,0,0,3.2361e-4,0.01164,7.874,48.695,84.198,0.0040106,NaN,14.458,1003.5,340.06,0.01,0.078701
0.71225,34.318,95.877,120.97,96.168,121.86,2.0618,5.0573e-5,2.0618,0.0014054,7.4857,14.68,32.9,-106,9.7953,0.26168,0,6.2197,0.003468,1181.3,45.288,0.18467,0.0087332,74.058,66.214,0.99615,0.28324,6243412,168.71,13.28,0.48368,0.48379,0.31203,0.041226,0.13043,0.066099,0.065784,-3.3607e-4,0,0,0,0,3.7213e-4,0.011791,7.874,48.695,84.258,0.0041212,NaN,14.452,1003.4,340.06,0.01,0.07909
0.72225,35.282,97.086,120.11,97.385,120.93,2.1373,5.4927e-5,2.1373,0.0014724,7.6297,14.036,32.9,-106,9.7953,0.18734,0,6.6036,0.0052016,1180.4,44.384,0.18464,0.0087331,74.09,66.201,1.0018,0.28682,6321804,167.86,13.63,0.4842,0.48425,0.31196,0.041538,0.13069,0.047265,0.047424,-1.4673e-4,0,0,0,0,4.0908e-4,0.01194,7.874,48.695,84.322,0.0041539,NaN,14.446,1003.2,340.05,0.01,0.079373
0.73225,36.259,98.287,119.25,98.593,120,2.2143,5.9524e-5,2.2143,0.0015402,7.7671,13.366,32.9,-106,9.7953,0.11333,0,6.8681,0.010343,1179.5,43.481,0.18461,0.008733,74.122,66.189,1.0075,0.29037,6399584,167,13.982,0.48471,0.48473,0.3119,0.041853,0.13096,0.028559,0.027884,3.6939e-7,0,0,0,0,4.3175e-4,0.012089,7.874,48.695,84.39,0.0042701,NaN,14.439,1003.1,340.05,0.01,0.079635
0.74225,37.248,99.479,118.38,99.792,119.06,2.2927,6.4366e-5,2.2927,0.0016086,7.8978,12.681,32.9,-106,9.7953,0.040879,0,7.0038,0.024318,1178.6,42.578,0.18459,0.0087329,74.153,66.176,1.0131,0.2939,6476747,166.15,14.337,0.48523,0.48524,0.31184,0.04217,0.13123,0.010289,0.0095997,2.8081e-4,0,0,0,0,4.3829e-4,0.012236,7.874,48.695,84.459,0.0044266,NaN,14.433,1003,340.05,0.01,0.079899
0.75225,38.249,100.66,117.51,100.98,118.13,2.3723,6.9455e-5,2.3723,0.0016775,8.0215,12.002,32.9,-106,9.7953,0.027338,0,-7.0106,0.03275,1177.7,41.675,0.18456,0.0087328,74.16,66.163,1.0156,0.2974,6553274,165.29,14.694,0.48576,0.48576,0.31177,0.04249,0.1315,0.0068803,0.007596,-4.2777e-4,0,0,0,0,-4.2887e-4,0.012382,7.874,48.695,84.53,0.0043621,NaN,14.426,1002.9,340.04,0.01,0.080168
0.76225,39.261,101.84,116.64,102.16,117.19,2.4531,7.4778e-5,2.4531,0.0017466,8.1387,11.363,32.9,-106,9.7953,0.086816,0,-6.8968,0.010328,1176.8,40.771,0.18453,0.0087328,74.137,66.15,1.0144,0.30087,6629123,164.44,15.054,0.48628,0.48629,0.31171,0.042811,0.13177,0.021877,0.022179,-1.7113e-5,0,0,0,0,-4.0556e-4,0.012526,7.874,48.695,84.599,0.0040772,NaN,14.42,1002.8,340.04,0.01,0.080494
0.77225,40.285,103,115.75,103.33,116.25,2.535,8.0303e-5,2.535,0.001815,8.2496,10.739,32.9,-106,9.7953,0.14179,0,-6.6682,0.0052946,1175.9,39.868,0.1845,0.0087327,74.116,66.137,1.0133,0.30431,6704348,163.58,15.416,0.48681,0.48684,0.31164,0.043134,0.13204,0.03577,0.036886,7.505e-5,0,0,0,0,-3.7061e-4,0.01267,7.874,48.695,84.667,0.0036837,NaN,14.413,1002.7,340.03,0.01,0.080833
0.78225,41.321,104.16,114.86,104.49,115.31,2.618,8.5991e-5,2.618,0.0018819,8.3543,10.144,32.9,-106,9.7953,0.19134,0,-6.3302,0.0031535,1175,38.965,0.18447,0.0087326,74.098,66.124,1.0126,0.30772,6778944,162.73,15.78,0.48734,0.4874,0.31157,0.043459,0.13231,0.048323,0.049122,3.7278e-5,0,0,0,0,-3.2662e-4,0.012813,7.874,48.695,84.732,0.0033383,NaN,14.406,1002.5,340.03,0.01,0.081182
0.79225,42.369,105.31,113.96,105.65,114.37,2.7021,9.1805e-5,2.7021,0.0019467,8.4533,9.5856,32.9,-106,9.7953,0.23468,0,-5.8902,0.0013187,1174.1,38.062,0.18444,0.0087325,74.082,66.112,1.0122,0.31111,6852911,161.87,16.146,0.48788,0.48796,0.31151,0.043785,0.13258,0.059325,0.060775,3.0932e-4,0,0,0,0,-2.7668e-4,0.012954,7.874,48.695,84.793,0.0030467,NaN,14.4,1002.4,340.03,0.01,0.081593
0.80225,43.427,106.45,113.06,106.79,113.42,2.7871,9.7717e-5,2.7871,0.0020088,8.5469,9.0613,32.9,-106,9.7953,0.27308,0,-5.3563,8.6058e-4,1173.2,37.158,0.18441,0.0087324,74.068,66.099,1.0121,0.31447,6926269,161.01,16.513,0.48841,0.48852,0.31144,0.044114,0.13286,0.069094,0.069764,4.1363e-4,0,0,0,0,-2.2394e-4,0.013094,7.874,48.695,84.85,0.0028535,NaN,14.393,1002.3,340.02,0.01,0.081963
0.81225,44.498,107.58,112.15,107.92,112.47,2.873,1.0371e-4,2.873,0.0020683,8.6352,8.5454,32.9,-106,9.7953,0.31048,0,-4.7284,0.001588,1172.3,36.255,0.18438,0.0087323,74.054,66.086,1.012,0.3178,6999071,160.16,16.883,0.48895,0.48909,0.31138,0.044444,0.13313,0.078621,0.079877,-2.5403e-6,0,0,0,0,-1.7087e-4,0.013233,7.874,48.695,84.9,0.0026132,NaN,14.386,1002.2,340.02,0.01,0.082341
0.82225,45.579,108.7,111.23,109.05,111.52,2.9598,1.0975e-4,2.9598,0.0021246,8.7187,8.0976,32.9,-106,9.7953,0.33934,0,-4.0119,-4.1324e-4,1171.4,35.352,0.18435,0.0087322,74.044,66.073,1.0123,0.32111,7071236,159.3,17.254,0.48949,0.48966,0.31131,0.044776,0.1334,0.085989,0.087618,3.3924e-4,0,0,0,0,-1.2049e-4,0.013371,7.874,48.695,84.944,0.0024145,NaN,14.379,1002,340.01,0.01,0.082913
0.83225,46.671,109.81,110.3,110.16,110.57,3.0474,1.1584e-4,3.0474,0.0021779,8.7981,7.7265,32.9,-106,9.7953,0.3593,0,-3.2264,-0.0016599,1170.4,34.448,0.18432,0.0087321,74.037,66.06,1.0132,0.32439,7142763,158.45,17.626,0.49003,0.49023,0.31124,0.04511,0.13368,0.091095,0.092427,-1.766e-4,0,0,0,0,-7.6362e-5,0.013507,7.874,48.695,84.98,0.0024922,NaN,14.372,1001.9,340.01,0.01,0.083422
0.84225,47.775,110.91,109.37,111.27,109.62,3.1357,1.2195e-4,3.1357,0.0022283,8.8742,7.4386,32.9,-106,9.7953,0.37022,0,-2.391,2.8656e-4,1169.5,33.545,0.18429,0.008732,74.035,66.047,1.0145,0.32764,7213651,157.59,17.999,0.49058,0.49078,0.31118,0.045445,0.13396,0.093899,0.095094,1.3739e-4,0,0,0,0,-4.1112e-5,0.013643,7.874,48.695,85.008,0.0024829,NaN,14.364,1001.8,340,0.01,0.083851
0.85225,48.89,112,108.42,112.36,108.66,3.2248,1.2811e-4,3.2248,0.002276,8.9478,7.1921,32.9,-106,9.7953,0.37783,0,-1.5186,-0.0018646,1168.6,32.642,0.18426,0.0087319,74.033,66.034,1.0159,0.33087,7283968,156.74,18.374,0.49112,0.49134,0.31111,0.045782,0.13423,0.095857,0.097898,1.9479e-4,0,0,0,0,-1.6262e-5,0.013777,7.874,48.695,85.028,0.0024939,NaN,14.357,1001.7,340,0.01,0.084262
0.86225,50.015,113.09,107.48,113.45,107.7,3.3147,1.343e-4,3.3147,0.0023214,9.0184,6.8807,32.9,-106,9.7953,0.39515,0,-0.59267,-0.0016394,1167.7,31.739,0.18423,0.0087318,74.028,66.021,1.0169,0.33408,7353877,155.88,18.751,0.49167,0.49191,0.31104,0.046121,0.13451,0.1003,0.10231,3.8506e-5,0,0,0,0,-2.4297e-6,0.01391,7.874,48.695,85.039,0.0026739,NaN,14.35,1001.5,339.99,0.01,0.084616
0.87225,51.151,114.16,106.53,114.52,106.74,3.4052,1.4054e-4,3.4052,0.0023648,9.0864,6.6717,32.9,-106,9.7953,0.40199,0,0.37964,-0.0012853,1166.8,30.835,0.1842,0.0087317,74.027,66.008,1.0184,0.33726,7423142,155.03,19.129,0.49222,0.49247,0.31097,0.046461,0.13479,0.10206,0.10396,2.2791e-4,0,0,0,0,9.7827e-7,0.014042,7.874,48.695,85.04,0.002869,NaN,14.343,1001.4,339.99,0.01,0.085008
